place_name,type,latitude,longitude,area
Marina Beach,tourist,13.0500,80.2824,Chennai Central
Mahabalipuram,tourist,12.6269,80.1927,Chengalpattu
Vandalur Zoo,tourist,12.8812,80.0820,South Chennai
Phoenix Mall,shopping,13.0024,80.2562,Velachery
Besant Nagar,leisure,13.0002,80.2707,South Chennai
DLF IT Park,office,13.0075,80.2206,Guindy
Tidel Park,office,12.9899,80.2471,OMR
SIPCOT IT Park,office,12.8409,80.2197,Siruseri
